{"results": [{"location": {"address": "780 Richards St", "country": "CA", "cross_street": "btwn W Georgia & Robson", "formatted_address": "780 Richards St (btwn W Georgia & Robson), Vancouver BC V6B 3A4", "locality": "Vancouver", "neighborhood": ["Central"], "postcode": "V6B 3A4", "region": "BC"}, "name": "Cafe Medina", "price": 2, "rating": 9.0, "stats": {"total_photos": 970, "total_ratings": 1109, "total_tips": 305}}, {"location": {"address": "674 Granville St", "address_extended": "# 9999", "country": "CA", "cross_street": "at Georgia St", "formatted_address": "674 Granville St (at Georgia St), Vancouver BC V6C 1Z6", "locality": "Vancouver", "neighborhood": ["Downtown"], "postcode": "V6C 1Z6", "region": "BC"}, "name": "Nespresso Boutique", "price": 1, "rating": 8.2, "stats": {"total_photos": 73, "total_ratings": 32, "total_tips": 3}}, {"location": {"address": "701 W Georgia St", "address_extended": "D038D", "country": "CA", "cross_street": "", "formatted_address": "701 W Georgia St, Vancouver BC V7Y 1G5", "locality": "Vancouver", "neighborhood": ["Central"], "postcode": "V7Y 1G5", "region": "BC"}, "name": "DAVIDsTEA", "price": 2, "rating": 8.6, "stats": {"total_photos": 31, "total_ratings": 64, "total_tips": 9}}, {"location": {"address": "740 Hamilton St", "country": "CA", "cross_street": "btwn Robson & Georgia", "formatted_address": "740 Hamilton St (btwn Robson & Georgia), Vancouver BC V6B 2R5", "locality": "Vancouver", "neighborhood": ["Central"], "postcode": "V6B 2R5", "region": "BC"}, "name": "JJ Bean", "price": 1, "rating": 8.6, "stats": {"total_photos": 66, "total_ratings": 36, "total_tips": 12}}, {"location": {"address": "353 Pender St W", "country": "CA", "cross_street": "at Homer St", "formatted_address": "353 Pender St W (at Homer St), Vancouver BC V6B 1T3", "locality": "Vancouver", "neighborhood": ["Gastown"], "postcode": "V6B 1T3", "region": "BC"}, "name": "Finch's Tea & Coffee House", "price": 2, "rating": 8.9, "stats": {"total_photos": 206, "total_ratings": 180, "total_tips": 55}}, {"location": {"address": "801 Georgia St W", "address_extended": "Rosewood Hotel", "country": "CA", "cross_street": "Howe St", "formatted_address": "801 Georgia St W (Howe St), Vancouver BC V6C 1P7", "locality": "Vancouver", "neighborhood": ["Downtown"], "postcode": "V6C 1P7", "region": "BC"}, "name": "Bel Cafe", "price": 2, "rating": 7.9, "stats": {"total_photos": 197, "total_ratings": 148, "total_tips": 42}}, {"location": {"address": "750 Hornby St", "country": "CA", "cross_street": "btw Robson & W Georgia", "formatted_address": "750 Hornby St (btw Robson & W Georgia), Vancouver BC V6Z 2H7", "locality": "Vancouver", "neighborhood": ["Downtown"], "postcode": "V6Z 2H7", "region": "BC"}, "name": "Gallery Cafe & Catering", "price": 1, "rating": 8.2, "stats": {"total_photos": 216, "total_ratings": 110, "total_tips": 40}}, {"location": {"address": "548 Seymour St", "country": "CA", "cross_street": "", "formatted_address": "548 Seymour St, Vancouver BC V6B 3J5", "locality": "Vancouver", "neighborhood": ["Central"], "postcode": "V6B 3J5", "region": "BC"}, "name": "Baghdad Cafe", "price": 1, "rating": 8.1, "stats": {"total_photos": 38, "total_ratings": 56, "total_tips": 9}}, {"location": {"address": "450 Granville St", "address_extended": "# 218", "country": "CA", "cross_street": "btwn W. Hastings & W. Pender St.", "formatted_address": "450 Granville St (btwn W. Hastings & W. Pender St.), Vancouver BC V6C 1V4", "locality": "Vancouver", "neighborhood": ["Downtown"], "postcode": "V6C 1V4", "region": "BC"}, "name": "Trees Organic Coffee", "price": 2, "rating": 8.2, "stats": {"total_photos": 336, "total_ratings": 266, "total_tips": 95}}, {"location": {"address": "750 Pender St W", "address_extended": "Unit 104", "country": "CA", "cross_street": "at Pacific Centre", "formatted_address": "750 Pender St W (at Pacific Centre), Vancouver BC V6C 2T7", "locality": "Vancouver", "neighborhood": ["Downtown"], "postcode": "V6C 2T7", "region": "BC"}, "name": "Tim Hortons", "price": 1, "rating": 7.7, "stats": {"total_photos": 104, "total_ratings": 83, "total_tips": 21}}, {"location": {"address": "425 Dunsmuir St", "country": "CA", "cross_street": "", "formatted_address": "425 Dunsmuir St, Vancouver BC V6B 1X4", "locality": "Vancouver", "postcode": "V6B 1X4", "region": "BC"}, "name": "JJ Bean Coffee Roasters", "price": 1, "rating": 7.3, "stats": {"total_photos": 13, "total_ratings": 25, "total_tips": 1}}, {"location": {"address": "799 Robson St", "country": "CA", "cross_street": "", "formatted_address": "799 Robson St, Vancouver BC V7Y 0A2", "locality": "Vancouver", "neighborhood": ["Downtown"], "postcode": "V7Y 0A2", "region": "BC"}, "name": "Ebar", "price": 1, "rating": 7.1, "stats": {"total_photos": 32, "total_ratings": 29, "total_tips": 9}}, {"location": {"address": "891 Homer St", "country": "CA", "cross_street": "Homer and Smithe", "formatted_address": "891 Homer St (Homer and Smithe), Vancouver BC V6B 2W2", "locality": "Vancouver", "neighborhood": ["Gastown-Yaletown"], "postcode": "V6B 2W2", "region": "BC"}, "name": "Per Se Social Corner", "price": 1, "rating": 7.4, "stats": {"total_photos": 82, "total_ratings": 72, "total_tips": 16}}, {"location": {"address": "345 Robson St", "address_extended": "# 206", "country": "CA", "cross_street": "at Homer St", "formatted_address": "345 Robson St (at Homer St), Vancouver BC V6B 6B3", "locality": "Vancouver", "neighborhood": ["Downtown"], "postcode": "V6B 6B3", "region": "BC"}, "name": "Blenz Coffee", "price": 1, "rating": 7.2, "stats": {"total_photos": 20, "total_ratings": 14, "total_tips": 3}}, {"location": {"address": "345 Robson St", "country": "CA", "cross_street": "", "formatted_address": "345 Robson St, Vancouver BC V6B 6B3", "locality": "Vancouver", "postcode": "V6B 6B3", "region": "BC"}, "name": "Pacific Coffee Roasters", "price": 1, "rating": 7.1, "stats": {"total_photos": 9, "total_ratings": 16, "total_tips": 3}}, {"location": {"address": "843 Seymour St", "country": "CA", "cross_street": "at Robson St", "formatted_address": "843 Seymour St (at Robson St), Vancouver BC V6B 3L4", "locality": "Vancouver", "neighborhood": ["Downtown"], "postcode": "V6B 3L4", "region": "BC"}, "name": "Incognito Coffee", "price": 1, "rating": 6.8, "stats": {"total_photos": 43, "total_ratings": 16, "total_tips": 5}}, {"location": {"address": "510 Georgia St W 101", "address_extended": "# 101", "country": "CA", "cross_street": "", "formatted_address": "510 Georgia St W 101, Vancouver BC V6B 0M3", "locality": "Vancouver", "neighborhood": ["Central"], "postcode": "V6B 0M3", "region": "BC"}, "name": "Nosh", "price": 1, "rating": 6.3, "stats": {"total_photos": 19, "total_ratings": 29, "total_tips": 9}}, {"location": {"address": "845 Cambie St", "country": "CA", "cross_street": "btwn Smithe St. & Robson St.", "formatted_address": "845 Cambie St (btwn Smithe St. & Robson St.), Vancouver BC V6B 4Z9", "locality": "Vancouver", "neighborhood": ["Downtown"], "postcode": "V6B 4Z9", "region": "BC"}, "name": "Grounds For Appeal", "price": 2, "rating": 6.9, "stats": {"total_photos": 14, "total_ratings": 22, "total_tips": 14}}, {"location": {"address": "463 Robson St", "country": "CA", "cross_street": "Btw Richards & Homer", "formatted_address": "463 Robson St (Btw Richards & Homer), Vancouver BC V6B 6L9", "locality": "Vancouver", "neighborhood": ["Downtown"], "postcode": "V6B 6L9", "region": "BC"}, "name": "Tim Hortons", "price": 1, "rating": 6.5, "stats": {"total_photos": 102, "total_ratings": 132, "total_tips": 31}}, {"location": {"address": "466 Granville St", "country": "CA", "cross_street": "at Pender St", "formatted_address": "466 Granville St (at Pender St), Vancouver BC V6C 1V4", "locality": "Vancouver", "postcode": "V6C 1V4", "region": "BC"}, "name": "Cr\u00e8me de la Crumb", "price": 1, "rating": 6.8, "stats": {"total_photos": 23, "total_ratings": 18, "total_tips": 10}}, {"location": {"address": "1055 W Georgia St", "country": "CA", "cross_street": "Burrard", "formatted_address": "1055 W Georgia St (Burrard), Vancouver BC", "locality": "Vancouver", "postcode": "", "region": "BC"}, "name": "PHAT Royal Centre", "price": 1, "rating": 6.9, "stats": {"total_photos": 7, "total_ratings": 15, "total_tips": 7}}, {"location": {"address": "700 Pender St W", "address_extended": "# 102", "country": "CA", "cross_street": "btwn Granville & Howe", "formatted_address": "700 Pender St W (btwn Granville & Howe), Vancouver BC V6C 1G8", "locality": "Vancouver", "neighborhood": ["Downtown"], "postcode": "V6C 1G8", "region": "BC"}, "name": "Starbucks", "price": 1, "rating": 6.7, "stats": {"total_photos": 130, "total_ratings": 109, "total_tips": 13}}, {"location": {"address": "426 Hastings St W", "country": "CA", "cross_street": "btwn Richards & Homer", "formatted_address": "426 Hastings St W (btwn Richards & Homer), Vancouver BC V6B 1L1", "locality": "Vancouver", "neighborhood": ["Central"], "postcode": "V6B 1L1", "region": "BC"}, "name": "Bonchaz Bakery Cafe", "price": 1, "rating": 6.9, "stats": {"total_photos": 63, "total_ratings": 64, "total_tips": 34}}, {"location": {"address": "508 Hastings St W", "country": "CA", "cross_street": "at Richards St.", "formatted_address": "508 Hastings St W (at Richards St.), Vancouver BC V6B 1L6", "locality": "Vancouver", "neighborhood": ["Downtown"], "postcode": "V6B 1L6", "region": "BC"}, "name": "Blenz Coffee", "price": 2, "rating": 6.8, "stats": {"total_photos": 52, "total_ratings": 79, "total_tips": 23}}, {"location": {"address": "433 Granville St", "country": "CA", "cross_street": "Hastings", "formatted_address": "433 Granville St (Hastings), Vancouver BC V6C 1T1", "locality": "Vancouver", "neighborhood": ["Downtown"], "postcode": "V6C 1T1", "region": "BC"}, "name": "Festal Paleo Cafe", "price": 1, "rating": 6.7, "stats": {"total_photos": 15, "total_ratings": 23, "total_tips": 7}}, {"location": {"address": "885 Dunsmuir St", "country": "CA", "cross_street": "at Hornby St", "formatted_address": "885 Dunsmuir St (at Hornby St), Vancouver BC V6C 1N5", "locality": "Vancouver", "neighborhood": ["Downtown"], "postcode": "V6C 1N5", "region": "BC"}, "name": "Starbucks", "price": 1, "rating": 6.6, "stats": {"total_photos": 51, "total_ratings": 50, "total_tips": 13}}, {"location": {"address": "321 Pender St W", "country": "CA", "cross_street": "", "formatted_address": "321 Pender St W, Vancouver BC V6B 1T3", "locality": "Vancouver", "postcode": "V6B 1T3", "region": "BC"}, "name": "Republica Coffee Roasters", "price": 1, "rating": 6.7, "stats": {"total_photos": 5, "total_ratings": 11}}, {"location": {"address": "498 Robson St", "address_extended": "Unit 5", "country": "CA", "cross_street": "at Richards St", "formatted_address": "498 Robson St (at Richards St), Vancouver BC V6B 2B5", "locality": "Vancouver", "neighborhood": ["Gastown-Yaletown"], "postcode": "V6B 2B5", "region": "BC"}, "name": "Starbucks", "price": 2, "rating": 6.4, "stats": {"total_photos": 70, "total_ratings": 71, "total_tips": 10}}, {"location": {"address": "360 Georgia St W", "country": "CA", "cross_street": "Hamilton", "formatted_address": "360 Georgia St W (Hamilton), Vancouver BC", "locality": "Vancouver", "postcode": "", "region": "BC"}, "name": "Blenz Coffee", "price": 1, "rating": 6.4, "stats": {"total_photos": 11, "total_ratings": 7, "total_tips": 2}}, {"location": {"address": "980 Seymour St", "address_extended": "Unit 960", "country": "CA", "cross_street": "btwn Nelson & Smithe", "formatted_address": "980 Seymour St (btwn Nelson & Smithe), Vancouver BC V6B 1B5", "locality": "Vancouver", "neighborhood": ["Central"], "postcode": "V6B 1B5", "region": "BC"}, "name": "Starbucks", "price": 1, "rating": 6.7, "stats": {"total_photos": 27, "total_ratings": 61, "total_tips": 9}}, {"location": {"address": "796 Granville St", "country": "CA", "cross_street": "at Robson St", "formatted_address": "796 Granville St (at Robson St), Vancouver BC V6Z 1E4", "locality": "Vancouver", "neighborhood": ["Downtown"], "postcode": "V6Z 1E4", "region": "BC"}, "name": "Cafe Crepe", "price": 2, "rating": 6.2, "stats": {"total_photos": 80, "total_ratings": 77, "total_tips": 19}}, {"location": {"address": "515 Hastings St W", "address_extended": "Unit 6", "country": "CA", "cross_street": "at Seymour St.", "formatted_address": "515 Hastings St W (at Seymour St.), Vancouver BC V6B 5K3", "locality": "Vancouver", "neighborhood": ["Gastown-Yaletown"], "postcode": "V6B 5K3", "region": "BC"}, "name": "Tim Hortons", "price": 1, "rating": 6.7, "stats": {"total_photos": 68, "total_ratings": 80, "total_tips": 19}}, {"location": {"address": "386 Robson St", "country": "CA", "cross_street": "btwn Homer & Hamilton", "formatted_address": "386 Robson St (btwn Homer & Hamilton), Vancouver BC V6B 2B2", "locality": "Vancouver", "neighborhood": ["Gastown-Yaletown"], "postcode": "V6B 2B2", "region": "BC"}, "name": "Gong Cha", "rating": 6.4, "stats": {"total_photos": 21, "total_ratings": 18, "total_tips": 4}}, {"location": {"address": "678 Dunsmuir St", "address_extended": "# 80", "country": "CA", "cross_street": "in Granville SkyTrain Station", "formatted_address": "678 Dunsmuir St (in Granville SkyTrain Station), Vancouver BC V6B 1N3", "locality": "Vancouver", "neighborhood": ["Central"], "postcode": "V6B 1N3", "region": "BC"}, "name": "Cultured Coffee & Tea", "price": 1, "rating": 6.1, "stats": {"total_photos": 11, "total_ratings": 8, "total_tips": 9}}, {"location": {"address": "900 Howe St", "address_extended": "# 100", "country": "CA", "cross_street": "at Smithe St", "formatted_address": "900 Howe St (at Smithe St), Vancouver BC V6Z 2M4", "locality": "Vancouver", "neighborhood": ["Downtown"], "postcode": "V6Z 2M4", "region": "BC"}, "name": "Waves Coffee House", "price": 1, "rating": 6.5, "stats": {"total_photos": 65, "total_ratings": 67, "total_tips": 27}}, {"location": {"address": "575 W. Georgia St", "country": "CA", "cross_street": "Seymour Street", "formatted_address": "575 W. Georgia St (Seymour Street), Vancouver BC V6B 1Z5", "locality": "Vancouver", "neighborhood": ["Gastown-Yaletown"], "postcode": "V6B 1Z5", "region": "BC"}, "name": "The Nosherie", "price": 1, "rating": 5.7, "stats": {"total_photos": 43, "total_ratings": 54, "total_tips": 17}}, {"location": {"address": "701 Georgia St W 10", "country": "CA", "cross_street": "", "formatted_address": "701 Georgia St W 10, Vancouver BC V7Y 1K8", "locality": "Vancouver", "neighborhood": ["Downtown"], "postcode": "V7Y 1K8", "region": "BC"}, "name": "Cafe Supreme", "price": 1}, {"location": {"address": "650 Georgia St W", "country": "CA", "cross_street": "City Centre SkyTrain Station", "formatted_address": "650 Georgia St W (City Centre SkyTrain Station), Vancouver BC V6B 4N7", "locality": "Vancouver", "neighborhood": ["North Vancouver"], "postcode": "V6B 4N7", "region": "BC"}, "name": "Tim Hortons", "price": 1, "rating": 5.3, "stats": {"total_photos": 24, "total_ratings": 34, "total_tips": 7}}, {"location": {"address": "738 Granville St", "country": "CA", "cross_street": "", "formatted_address": "738 Granville St, Vancouver BC V6Z 1E4", "locality": "Vancouver", "postcode": "V6Z 1E4", "region": "BC"}, "name": "Cacao 70 Sweet House", "price": 1}, {"location": {"address": "495 Georgia St W", "country": "CA", "cross_street": "at Richards St", "formatted_address": "495 Georgia St W (at Richards St), Vancouver BC V6B 1B3", "locality": "Vancouver", "neighborhood": ["Central"], "postcode": "V6B 1B3", "region": "BC"}, "name": "Blenz Coffee", "price": 1, "rating": 5.4, "stats": {"total_photos": 18, "total_ratings": 26, "total_tips": 9}}, {"location": {"address": "678 Dunsmuir St", "country": "CA", "cross_street": "", "formatted_address": "678 Dunsmuir St, Vancouver BC V6C 3T3", "locality": "Vancouver", "neighborhood": ["Downtown"], "postcode": "V6C 3T3", "region": "BC"}, "name": "Xing Fu Tang"}, {"location": {"address": "548 Robson St", "country": "CA", "cross_street": "Richards", "formatted_address": "548 Robson St (Richards), Vancouver BC V6B 2B7", "locality": "Vancouver", "postcode": "V6B 2B7", "region": "BC"}, "name": "Atealier by Chatime"}, {"location": {"address": "708 Robson St", "country": "CA", "cross_street": "at Granville St", "formatted_address": "708 Robson St (at Granville St), Vancouver BC V6Z 1A1", "locality": "Vancouver", "neighborhood": ["Downtown"], "postcode": "V6Z 1A1", "region": "BC"}, "name": "Pita Wrap Cafe", "price": 1}, {"location": {"address": "843 Seymour St", "country": "CA", "cross_street": "", "formatted_address": "843 Seymour St, Vancouver BC V6B 3L4", "locality": "Vancouver", "neighborhood": ["Central"], "postcode": "V6B 3L4", "region": "BC"}, "name": "Cr\u00e8me de la Crumb", "price": 1}, {"location": {"address": "492 Hastings St W", "country": "CA", "cross_street": "at Richards St", "formatted_address": "492 Hastings St W (at Richards St), Vancouver BC V6B 1L1", "locality": "Vancouver", "neighborhood": ["Central"], "postcode": "V6B 1L1", "region": "BC"}, "name": "Waves Coffee House", "price": 1, "rating": 5.9, "stats": {"total_photos": 81, "total_ratings": 68, "total_tips": 27}}, {"location": {"address": "767 Seymour St", "address_extended": "# 103", "country": "CA", "cross_street": "at Robson St", "formatted_address": "767 Seymour St (at Robson St), Vancouver BC V6B 5J3", "locality": "Vancouver", "neighborhood": ["Robson Street"], "postcode": "V6B 5J3", "region": "BC"}, "name": "Blenz Coffee", "price": 1, "rating": 5.2, "stats": {"total_photos": 19, "total_ratings": 21, "total_tips": 7}}, {"location": {"address": "829 Granville St", "country": "CA", "cross_street": "near Robson", "formatted_address": "829 Granville St (near Robson), Vancouver BC V6Z 1K7", "locality": "Vancouver", "neighborhood": ["Downtown"], "postcode": "V6Z 1K7", "region": "BC"}, "name": "Taf's Cafe", "price": 1, "rating": 5.4, "stats": {"total_photos": 15, "total_ratings": 16, "total_tips": 8}}, {"location": {"address": "211 Robson St", "country": "CA", "cross_street": "at Cambie St", "formatted_address": "211 Robson St (at Cambie St), Vancouver BC V6B 0E7", "locality": "Vancouver", "neighborhood": ["Central"], "postcode": "V6B 0E7", "region": "BC"}, "name": "Waves Coffee House", "price": 1, "rating": 5.8, "stats": {"total_photos": 40, "total_ratings": 44, "total_tips": 15}}, {"location": {"address": "925 Georgia St W", "address_extended": "# 140", "country": "CA", "cross_street": "", "formatted_address": "925 Georgia St W, Vancouver BC V6C 3L2", "locality": "Vancouver", "neighborhood": ["Downtown"], "postcode": "V6C 3L2", "region": "BC"}, "name": "Bread x Butter Cafe", "price": 1}, {"location": {"address": "505 Pender St W", "country": "CA", "cross_street": "", "formatted_address": "505 Pender St W, Vancouver BC V6B 1V5", "locality": "Vancouver", "neighborhood": ["Central"], "postcode": "V6B 1V5", "region": "BC"}, "name": "Moii Cafe"}], "context": {"geo_bounds": {"circle": {"center": {"latitude": 49.282, "longitude": -123.1171}, "radius": 500}}}}